<?xml version="1.0" encoding="UTF-8"?>
<gpx version="1.1" creator="GPX Creator Tool" xmlns="http://www.topografix.com/GPX/1/1">
  <metadata>
    <name>Locations in GPX</name>
    <author>
      <name>Generated by GPX Creator Tool</name>
    </author>
  </metadata>
  <wpt lat="57.60474485186619" lon="-5.29962699659139">
    <name>Kinlochewe stores</name>
  </wpt>
  <wpt lat="57.71235023303664" lon="-5.679826785041082">
    <name>Shop at the Pier</name>
  </wpt>
  <wpt lat="57.4004821122911" lon="-5.490495575995394">
    <name>Lochcarron Food Centre</name>
  </wpt>
  <wpt lat="57.843274135829844" lon="-5.593407361190858">
    <name>Aultbea stores</name>
  </wpt>
  <wpt lat="57.228049395082635" lon="-5.396863700724129">
    <name>Kintail crafts</name>
  </wpt>
</gpx>


